{
  "type": "FeatureCollection",
  "features": [
    {
      "type": "Feature",
      "properties": {
        "name": "GEX SÃO JOSÉ DO RIO PRETO",
        "type": "GEX"
      },
      "geometry": {
        "type": "Point",
        "coordinates": [
         		-49.385268,	-20.810426
        ]
      }
    },
    {
      "type": "Feature",
      "properties": {
        "name": "APS BARRETOS",
        "type": "APS FIXA"
      },
      "geometry": {
        "type": "Point",
        "coordinates": [
         	-48.570492,	-20.560817
        ]
      }
    },
    {
      "type": "Feature",
      "properties": {
        "name": "APS CATANDUVA",
        "type": "APS FIXA"
      },
      "geometry": {
        "type": "Point",
        "coordinates": [
         	-48.971054,	-21.1327
        ]
      }
    },
    {
      "type": "Feature",
      "properties": {
        "name": "APS FERNANDÓPOLIS",
        "type": "APS FIXA"
      },
      "geometry": {
        "type": "Point",
        "coordinates": [
         	-50.252438,	-20.278932
        ]
      }
    },
    {
      "type": "Feature",
      "properties": {
        "name": "APS GENERAL SALGADO",
        "type": "APS FIXA"
      },
      "geometry": {
        "type": "Point",
        "coordinates": [
         	-50.361368,	-20.646728
        ]
      }
    },
    {
      "type": "Feature",
      "properties": {
        "name": "APS JALES",
        "type": "APS FIXA"
      },
      "geometry": {
        "type": "Point",
        "coordinates": [
         		-50.551319,	-20.269766
        ]
      }
    },
    {
      "type": "Feature",
      "properties": {
        "name": "APS MIRASSOL",
        "type": "APS FIXA"
      },
      "geometry": {
        "type": "Point",
        "coordinates": [
         		-49.515959,	-20.818551
        ]
      }
    },
    {
      "type": "Feature",
      "properties": {
        "name": "APS OLÍMPIA",
        "type": "APS FIXA"
      },
      "geometry": {
        "type": "Point",
        "coordinates": [
         		-48.916271,-20.736996
        ]
      }
    },
    {
      "type": "Feature",
      "properties": {
        "name": "APS SÃO JOSÉ DO RIO PRETO",
        "type": "APS FIXA"
      },
      "geometry": {
        "type": "Point",
        "coordinates": [
         	-49.39595021880017,-20.80097456810854
        ]
      }
    },
    {
      "type": "Feature",
      "properties": {
        "name": "APS VOTUPORANGA",
        "type": "APS FIXA"
      },
      "geometry": {
        "type": "Point",
        "coordinates": [
         		-49.972819,	-20.421853
        ]
      }
    },
    {
      "type": "Feature",
      "properties": {
        "name": "APS NHANDEARA",
        "type": "APS FIXA"
      },
      "geometry": {
        "type": "Point",
        "coordinates": [
         		-50.040349,	-20.692913
        ]
      }
    },
    {
      "type": "Feature",
      "properties": {
        "name": "APS MONTE APRAZÍVEL",
        "type": "APS FIXA"
      },
      "geometry": {
        "type": "Point",
        "coordinates": [
         	-49.70974346977277,-20.77384746547283
        ]
      }
    },
    {
      "type": "Feature",
      "properties": {
        "name": "APS NOVO HORIZONTE/SP",
        "type": "APS FIXA"
      },
      "geometry": {
        "type": "Point",
        "coordinates": [
         	-49.22627,	-21.47067
        ]
      }
    },
    {
      "type": "Feature",
      "properties": {
        "name": "APS SANTA FÉ DO SUL",
        "type": "APS FIXA"
      },
      "geometry": {
        "type": "Point",
        "coordinates": [
         	-50.92744,	-20.216148
        ]
      }
    },
    {
      "type": "Feature",
      "properties": {
        "name": "APS GUAÍRA/SP",
        "type": "APS FIXA"
      },
      "geometry": {
        "type": "Point",
        "coordinates": [
         	-48.31644,	-20.32178
        ]
      }
    },
    {
      "type": "Feature",
      "properties": {
        "name": "APS JOSÉ BONIFÁCIO",
        "type": "APS FIXA"
      },
      "geometry": {
        "type": "Point",
        "coordinates": [
         	-49.697153,	-21.042448
        ]
      }
    },
    {
      "type": "Feature",
      "properties": {
        "name": "APS SÃO JOSÉ DO RIO PRETO - BOA VISTA",
        "type": "APS FIXA"
      },
      "geometry": {
        "type": "Point",
        "coordinates": [
          -49.385268,	-20.810426
        ]
      }
    },
    {
      "type": "Feature",
      "properties": {
        "name": "APS TANABI",
        "type": "APS FIXA"
      },
      "geometry": {
        "type": "Point",
        "coordinates": [
          -49.65459,	-20.62848
        ]
      }
    }
  ]
}